{"id": "al-101", "title": "Laptop Dell Latitude E6440 — tanio 90zł", "description": "i5-4300M, 8GB RAM, 500GB HDD. Działa, bateria słaba. Odbiór osobisty Kłodzko.", "price_value": 90, "price_label": "90 zł", "city_name": "Kłodzko", "region_name": "dolnośląskie", "lat": 50.4346, "lon": 16.6614, "category": "Elektronika/Laptopy", "condition": "używany", "seller": "marek_k", "url": "https://allegro.pl/oferta/al-101", "created_time": "2026-05-01"}
{"id": "al-102", "title": "Monitor Dell U2412M 24 cale IPS — 60zl", "description": "Sprawny, LED, port VGA+DVI. Zarysowania na obudowie. Kłodzko.", "price_value": 60, "price_label": "60 zł", "city_name": "Kłodzko", "region_name": "dolnośląskie", "lat": 50.4346, "lon": 16.6614, "category": "Elektronika/Monitory", "condition": "używany", "seller": "janek33", "created_time": "2026-05-01"}
{"id": "al-103", "title": "Zestaw narzedzi warsztatowych — multimetr + lutownica + przewody", "description": "Multimetr UNI-T, lutownica 40W, zestaw przewodow probierczych. Wszystko sprawne. 45zl. Duszniki.", "price_value": 45, "price_label": "45 zł", "city_name": "Duszniki-Zdrój", "region_name": "dolnośląskie", "lat": 50.4078, "lon": 16.3869, "category": "Narzędzia/Elektronika", "condition": "używany", "seller": "warsztat_stefan", "created_time": "2026-04-30"}
{"id": "al-104", "title": "Plyta glowna Gigabyte B450M — do naprawy 35zl", "description": "Nie wstaje, prawdopodobnie uszkodzony socket. Na czesci. Kłodzko.", "price_value": 35, "price_label": "35 zł", "city_name": "Kłodzko", "region_name": "dolnośląskie", "lat": 50.4346, "lon": 16.6614, "category": "Elektronika/Części komputerowe", "condition": "uszkodzony", "seller": "pc_recycler", "created_time": "2026-05-02"}
{"id": "al-105", "title": "Pralka Indesit — do naprawy lub na czesci — 20zl", "description": "Nie pobiera wody. Silnik i grzałka sprawne. Odbiór Nowa Ruda.", "price_value": 20, "price_label": "20 zł", "city_name": "Nowa Ruda", "region_name": "dolnośląskie", "lat": 50.5796, "lon": 16.501, "category": "AGD/Pralki", "condition": "uszkodzony", "seller": "dom_porzadki", "created_time": "2026-04-29"}
{"id": "al-106", "title": "Dysk SSD Kingston A400 480GB — 25zl", "description": "Sprawny, wymieniony na wiekszy. 2.5 cala SATA. Kłodzko.", "price_value": 25, "price_label": "25 zł", "city_name": "Kłodzko", "region_name": "dolnośląskie", "lat": 50.4346, "lon": 16.6614, "category": "Elektronika/Dyski", "condition": "używany", "seller": "tech_guy", "created_time": "2026-05-01"}
{"id": "al-107", "title": "Kamera IP Dahua IPC-HDW2100 — 15zl", "description": "Sprawna, brak zasilacza. PoE tez dziala. Polanica-Zdrój.", "price_value": 15, "price_label": "15 zł", "city_name": "Polanica-Zdrój", "region_name": "dolnośląskie", "lat": 50.4047, "lon": 16.5146, "category": "Elektronika/Kamery", "condition": "używany", "seller": "cctv_sprzedaz", "created_time": "2026-04-30"}
{"id": "al-108", "title": "Zasilacz do laptopa HP 19V 4.74A — 10zl", "description": "Oryginalny, sprawny. Wtyk 4.5x3.0mm. Kłodzko lub wysylka.", "price_value": 10, "price_label": "10 zł", "city_name": "Kłodzko", "region_name": "dolnośląskie", "lat": 50.4346, "lon": 16.6614, "category": "Elektronika/Zasilacze", "condition": "używany", "seller": "laptop_service", "created_time": "2026-05-02"}
{"id": "al-109", "title": "Profil aluminiowy 30x30mm — 4 sztuki po 1m — 15zl", "description": "Profile konstrukcyjne, do ramy albo wzmacniacza. Bystrzyca Kłodzka.", "price_value": 15, "price_label": "15 zł", "city_name": "Bystrzyca Kłodzka", "region_name": "dolnośląskie", "lat": 50.3008, "lon": 16.648, "category": "Materiały/Metal", "condition": "nowy", "seller": "budowlaniec", "created_time": "2026-04-30"}
{"id": "al-110", "title": "Oddam za darmo wiertarke udarowa Bosch — stara ale dziala", "description": "Wiertarka Bosch z lat 90. Dziala, wiertla w zestawie. Odbior Kłodzko.", "price_value": 0, "price_label": "Za darmo", "city_name": "Kłodzko", "region_name": "dolnośląskie", "lat": 50.4346, "lon": 16.6614, "category": "Narzędzia/Wiertarki", "condition": "używany", "seller": "stolarz_zenon", "created_time": "2026-05-01"}
{"id": "al-111", "title": "Akumulator samochodowy 12V 60Ah — do odzysku 5zl", "description": "Stary, nie trzyma ladunku. Mozna odzyskac olow. Zloty Stok.", "price_value": 5, "price_label": "5 zł", "city_name": "Złoty Stok", "region_name": "dolnośląskie", "lat": 50.4478, "lon": 16.8783, "category": "Pojazdy/Części", "condition": "uszkodzony", "seller": "auto_zlom", "created_time": "2026-05-02"}
{"id": "al-112", "title": "Rower gorski Trek 4300 — do naprawy 50zl", "description": "Ramka sprawna, hamulce do regulacji, przelozony lancuch. Kłodzko.", "price_value": 50, "price_label": "50 zł", "city_name": "Kłodzko", "region_name": "dolnośląskie", "lat": 50.4346, "lon": 16.6614, "category": "Pojazdy/Rowery", "condition": "używany", "seller": "rowerzysta1", "created_time": "2026-04-29"}
